{
"type": "FeatureCollection",
"features": [
{ "type": "Feature", "properties": { "NAME": "Maseru VOR" }, "geometry": { "type": "Point", "coordinates": [ 27.540556, -29.500278 ] } }
,
{ "type": "Feature", "properties": { "NAME": "Maputo VOR" }, "geometry": { "type": "Point", "coordinates": [ 32.608333, -25.869444 ] } }
,
{ "type": "Feature", "properties": { "NAME": "Witbank VOR 113.3MHz" }, "geometry": { "type": "Point", "coordinates": [ 29.194758, -25.829525 ] } }
,
{ "type": "Feature", "properties": { "NAME": "Petrusville VOR 112.7MHz" }, "geometry": { "type": "Point", "coordinates": [ 24.695017, -30.366225 ] } }
,
{ "type": "Feature", "properties": { "NAME": "Warden VOR 112.8MHz" }, "geometry": { "type": "Point", "coordinates": [ 29.069472, -27.774794 ] } }
,
{ "type": "Feature", "properties": { "NAME": "Standerton VOR 116MHz" }, "geometry": { "type": "Point", "coordinates": [ 28.867461, -26.696719 ] } }
,
{ "type": "Feature", "properties": { "NAME": "Somerveld VOR 113.0MHz" }, "geometry": { "type": "Point", "coordinates": [ 18.478389, -33.249347 ] } }
,
{ "type": "Feature", "properties": { "NAME": "Sutherland VOR 113.3MHz" }, "geometry": { "type": "Point", "coordinates": [ 20.622500, -32.450000 ] } }
,
{ "type": "Feature", "properties": { "NAME": "Port St Johns VOR 115.9MHz" }, "geometry": { "type": "Point", "coordinates": [ 29.519850, -31.608878 ] } }
,
{ "type": "Feature", "properties": { "NAME": "Phalaborwa VOR 115.3MHz" }, "geometry": { "type": "Point", "coordinates": [ 31.151969, -23.900758 ] } }
,
{ "type": "Feature", "properties": { "NAME": "Nieuwoudtville VOR 116.1MHz" }, "geometry": { "type": "Point", "coordinates": [ 19.071111, -31.380000 ] } }
,
{ "type": "Feature", "properties": { "NAME": "Hofmeyer VOR 113.4MHz" }, "geometry": { "type": "Point", "coordinates": [ 25.844000, -31.605883 ] } }
,
{ "type": "Feature", "properties": { "NAME": "Heidelberg VOR 116.7MHz" }, "geometry": { "type": "Point", "coordinates": [ 28.283164, -26.696806 ] } }
,
{ "type": "Feature", "properties": { "NAME": "Grasmere VOR 115.5MHz" }, "geometry": { "type": "Point", "coordinates": [ 27.676436, -26.514897 ] } }
,
{ "type": "Feature", "properties": { "NAME": "Greefswald VOR 117.9MHz" }, "geometry": { "type": "Point", "coordinates": [ 29.410278, -22.245556 ] } }
,
{ "type": "Feature", "properties": { "NAME": "Caledon VOR 114.9MHz" }, "geometry": { "type": "Point", "coordinates": [ 19.477886, -34.112967 ] } }

]
}
